     2.11           OBSERVATION DATA    G (GPS)             RINEX VERSION / TYPE
teqc  2019Feb12                         20230411 00:40:55UTCPGM / RUN BY / DATE
ZIMM                                                        MARKER NAME
14001M004                                                   MARKER NUMBER
TRIMBLE NETR9       SWISSTOPO                               OBSERVER / AGENCY
5429R49141          TRIMBLE NETR9       5.56                REC # / TYPE / VERS
99390               TRM29659.00     NONE                    ANT # / TYPE
  4331297.3480   567555.6390  4633133.7280                  APPROX POSITION XYZ
        0.0000        0.0000        0.0000                  ANTENNA: DELTA H/E/N
     1     1                                                WAVELENGTH FACT L1/2
    10    C1    L1    S1    C2    L2    S2    P2    C5    L5# / TYPES OF OBSERV
          S5                                                # / TYPES OF OBSERV
    30.0000                                                 INTERVAL
Linux 2.4.21-27.ELsmp|Opteron|gcc -static|Linux 64|=+       COMMENT
     2.11           OBSERVATION DATA    M (MIXED)           COMMENT
NetR9 5.56          Receiver Operator   20230410 000000 UTC COMMENT
L2C CARRIER PHASE MEASUREMENTS: PHASE SHIFTS REMOVED        COMMENT
L2C PHASE MATCHES L2 P PHASE                                COMMENT
GLONASS C/A & P PHASE MATCH: PHASE SHIFTS REMOVED           COMMENT
Forced Modulo Decimation to 30 seconds                      COMMENT
teqc edited: all GLONASS satellites excluded                COMMENT
teqc edited: all Galileo satellites excluded                COMMENT
  2023     4    10     0     0    0.0000000     GPS         TIME OF FIRST OBS
                                                            END OF HEADER
 23  4 10  0  0  0.0000000  0 10G16G03G30G04G20G05G06G11G09G07
  24182869.125 1 127081867.86511        28.000

  25253650.508 2 132709007.950 2        31.900    25253661.664 6 103409686.94047
        28.600    25253659.94147
  22994029.891 7 120834512.757 7        43.900    22994038.398 7  94156830.76149
        43.900    22994037.62149  22994035.699 5  90233629.163 5        36.200
  22586559.648 7 118693371.229 7        44.300    22586566.094 7  92488456.25348
        32.500    22586565.05548  22586566.402 5  88634768.779 5        35.300
  22580555.797 7 118661711.346 7        44.200                    92463659.99448
        31.400    22580560.50048
  25036316.977 3 131566736.85613        33.400    25036324.133 5 102519561.46455
        19.000    25036323.52045
  21489776.797 8 112929654.856 8        47.400    21489785.258 9  87997187.54449
        52.300    21489784.30949  21489782.879 6  84330593.017 6        39.500
  21572490.633 8 113364250.263 8        47.600    21572496.078 9  88335839.98749
        39.300    21572495.59049  21572496.785 6  84655161.062 6        38.200
  20577457.461 9 108135392.917 9        51.600    20577464.172 9  84261406.55249
        55.700    20577463.44149  20577461.617 7  80750611.223 7        42.300
  21189104.125 9 111349609.640 9        49.700    21189109.020 9  86765957.76349
        53.400    21189108.72749
 23  4 10  0  0 30.0000000  0 10G16G03G30G04G20G05G06G11G09G07
  24179970.797 1 127066639.51811        28.000

  25273428.852 3 132812943.708 3        33.700    25273439.094 5 103490675.65947
        27.400    25273436.94947
  22975346.484 7 120736331.567 7        44.700    22975355.445 7  94080325.98349
        44.300    22975354.43849  22975352.207 5  90160312.097 5        36.300
  22602335.453 7 118776273.885 7        44.200    22602342.086 8  92553055.70648
        32.800    22602341.55548  22602342.035 4  88696676.625 4        34.800
  22563322.734 8 118571149.019 8        45.300                    92393091.97748
        32.400    22563327.37548
  25016026.672 5 131460111.858 5        35.000    25016034.523 5 102436477.10345
        17.400    25016032.87145
  21503228.555 8 113000345.082 8        47.800    21503237.234 9  88052270.81749
        51.900    21503236.11749  21503234.688 6  84383381.133 6        38.800
  21569263.500 9 113347292.103 9        48.200    21569269.145 9  88322625.83349
        39.200    21569268.78149  21569270.176 6  84642497.497 6        39.200
  20584601.086 9 108172932.656 9        51.700    20584607.543 9  84290658.29449
        55.400    20584606.87149  20584605.059 7  80778644.151 7        42.200
  21181200.516 9 111308076.251 9        50.600    21181205.621 9  86733594.10149
        53.500    21181205.23449
 23  4 10  0  1  0.0000000  0 10G16G03G30G04G20G05G06G11G09G07
  24177186.766 1 127052005.76311        30.300

  25293224.117 5 132916959.401 5        35.200    25293232.770 5 103571726.81347
        29.900    25293232.24647
  22956707.930 7 120638386.610 7        44.600    22956717.207 8  94004005.28849
        43.800    22956716.23849  22956713.805 5  90087171.416 5        36.200
  22618139.422 7 118859323.706 7        43.900    22618146.133 8  92617769.81648
        32.000    22618145.45748  22618146.375 5  88758694.300 5        35.300
  22546126.344 8 118480780.645 8        45.200                    92322675.11548
        31.200    22546130.86748
  24995738.492 4 131353497.55414        34.300    24995746.504 5 102353401.17755
        19.600    24995745.71945
  21516769.328 9 113071501.309 9        48.000    21516777.672 9  88107717.19849
        51.900    21516776.47349  21516775.406 6  84436517.251 6        39.400
  21566152.367 9 113330942.534 9        48.300    21566158.043 9  88309885.90849
        39.600    21566157.43049  21566158.633 6  84630288.399 6        38.600
  20591807.789 9 108210804.002 9        52.600    20591814.117 9  84320168.42849
        55.200    20591813.66049  20591811.918 7  80806924.702 7        41.700
  21173385.234 9 111267006.598 9        49.900    21173390.328 8  86701591.78849
        53.500    21173389.96949
 23  4 10  0  1 30.0000000  0 10G16G03G30G04G20G05G06G11G09G07
  24174516.305 1 127037967.70011        30.700

  25313032.430 5 133021054.215 5        37.300    25313042.406 5 103652839.64348
        31.500    25313040.85248
  22938114.820 7 120540680.158 7        44.500    22938124.129 7  93927870.44749
        44.300    22938123.21149  22938120.926 5  90014208.873 5        36.100
  22633970.805 7 118942519.557 7        43.700    22633977.141 7  92682597.72248
        31.900    22633976.53548  22633978.629 5  88820821.051 5        35.400
  22528966.945 8 118390608.363 8        45.200                    92252411.03048
        32.700    22528971.03548
  24975453.898 5 131246895.783 5        37.000    24975460.016 5 102270334.96446
        20.900    24975459.97346
  21530397.984 9 113143121.251 9        48.000    21530406.422 9  88163524.92249
        51.900    21530405.39149  21530404.285 6  84489999.635 6        39.500
  21563157.109 9 113315202.393 9        48.900    21563162.762 9  88297620.85649
        39.300    21563162.39549  21563163.473 6  84618534.390 6        39.500
  20599077.352 9 108249006.026 9        52.100    20599083.824 9  84349936.22849
        55.300    20599083.25449  20599081.516 7  80835452.196 7        41.800
  21165658.516 9 111226401.733 9        50.100    21165663.453 9  86669951.65549
        53.500    21165663.00449
 23  4 10  0  2  0.0000000  0 10G16G03G30G04G20G05G06G11G09G07
  24171957.617 1 127024526.719 1        30.100

  25332855.891 5 133125227.10315        35.900    25332865.082 5 103734013.30857
        29.600    25332864.48847
  22919568.211 7 120443214.547 7        44.600    22919576.957 8  93851923.27549
        44.500    22919575.85949  22919573.848 5  89941426.181 5        36.500
  22649830.156 7 119025860.379 7        43.600    22649836.355 7  92747538.59048
        30.900    22649835.25448  22649837.469 5  88883055.976 5        35.000
  22511845.625 8 118300634.238 8        45.600                    92182301.35748
        31.700    22511849.21548
  24955171.078 6 131140308.183 6        38.100    24955177.008 5 102187279.70246
        22.000    24955176.23846
  21544114.672 8 113215202.710 8        47.900    21544123.316 9  88219692.27949
        51.900    21544122.16849  21544121.211 6  84543826.675 6        39.000
  21560277.813 9 113300072.476 9        48.100    21560283.645 9  88285831.30849
        39.200    21560283.10949  21560284.293 6  84607236.041 6        39.200
  20606409.656 9 108287537.750 9        52.700    20606416.250 9  84379960.94749
        55.600    20606415.64849  20606413.898 7  80864225.867 7        42.300
  21158020.156 9 111186262.679 9        49.800    21158025.219 9  86638674.49249
        53.700    21158024.87549
 23  4 10  0  2 30.0000000  0 10G16G03G30G04G20G05G06G11G09G07
  24169515.383 2 127011683.73012        31.600

  25352692.961 5 133229477.27315        36.100    25352704.270 6 103815247.13157
        29.900    25352703.19147
  22901067.375 7 120345992.025 7        44.300    22901075.910 7  93776165.51149
        44.300    22901075.00049  22901073.289 5  89868825.015 5        36.500
  22665716.914 7 119109344.961 7        43.400    22665723.270 7  92812591.49948
        31.400    22665722.16848  22665723.410 4  88945398.353 4        34.300
  22494762.344 8 118210860.661 8        45.500                    92112347.95048
        32.800    22494766.22748
  24934890.859 5 131033736.432 5        36.900    24934897.246 5 102104236.84045
        19.600    24934896.64545
  21557918.531 8 113287743.364 8        47.900    21557927.363 9  88276217.43249
        51.500    21557926.05149  21557925.043 6  84597996.632 6        39.000
  21557515.156 8 113285553.520 8        47.900    21557520.719 9  88274517.82749
        39.300    21557520.17649  21557521.539 6  84596393.959 6        39.200
  20613804.641 9 108326398.247 9        52.500    20613811.152 9  84410241.85249
        55.200    20613810.86349  20613808.918 7  80893245.073 7        42.300
  21150470.844 9 111146590.210 9        49.600    21150475.887 9  86607760.89349
        53.600    21150475.27349
 23  4 10  0  3  0.0000000  0 10G16G03G30G04G20G05G06G11G09G07
  24167184.391 1 126999439.918 1        30.300

  25372547.516 5 133333803.279 5        37.300    25372556.125 5 103896540.02648
        31.500    25372554.57448
  22882612.945 7 120249014.500 7        44.400    22882621.570 7  93700598.65349
        44.500    22882620.94149  22882619.090 5  89796406.781 5        36.900
  22681630.703 7 119192971.925 7        44.200    22681637.344 8  92877755.34448
        32.700    22681636.77048  22681637.105 4  89007847.097 4        34.700
  22477717.313 8 118121289.415 8        45.700                    92042552.20848
        32.100    22477720.86748
  24914614.133 5 130927181.157 5        35.200    24914620.102 5 102021206.86245
        19.000    24914619.71545
  21571809.695 8 113360740.596 8        47.500    21571818.270 8  88333098.36349
        51.700    21571816.92249  21571816.047 6  84652507.529 6        39.000
  21554868.477 9 113271645.894 9        48.100    21554874.145 9  88263680.70849
        39.200    21554873.46149  21554874.828 6  84586008.422 6        38.700
  20621261.898 9 108365586.202 9        51.900    20621268.313 9  84440777.92149
        55.600    20621267.95349  20621266.016 7  80922508.784 7        41.600
  21143010.344 9 111107385.064 9        49.400    21143015.445 8  86577211.44649
        53.800    21143014.63349
 23  4 10  0  3 30.0000000  0 10G16G03G30G04G20G05G06G11G09G07
  24164968.867 1 126987796.647 1        29.900

  25392413.563 5 133438204.707 5        35.400    25392423.332 6 103977891.74048
        30.300    25392423.12548
  22864206.047 7 120152284.888 7        44.500    22864214.766 8  93625224.96849
        45.100    22864213.78549  22864211.992 5  89724173.687 5        36.500
  22697571.320 7 119276740.791 7        43.500    22697577.926 8  92943029.74248
        31.500    22697577.40248  22697578.266 5  89070401.691 5        35.300
  22460711.383 8 118031923.095 8        45.400                    91972916.15048
        32.400    22460715.75448
  24894340.578 5 130820644.735 5        35.800    24894346.379 5 101938191.57846
        20.100    24894346.21546
  21585787.188 8 113434192.728 8        47.800    21585795.633 9  88390333.77249
        51.500    21585794.52349  21585793.270 6  84707358.104 6        39.300
  21552338.805 8 113258350.965 8        47.800    21552344.270 9  88253321.02049
        39.700    21552343.49249  21552344.980 6  84576080.349 6        39.200
  20628781.227 9 108405101.325 9        51.500    20628787.887 9  84471568.91849
        56.100    20628787.32049  20628785.625 7  80952016.828 7        42.200
  21135638.945 9 111068648.676 9        48.600    21135644.148 9  86547027.26449
        53.700    21135643.30949
 23  4 10  0  4  0.0000000  0 10G16G03G30G04G20G05G06G11G09G07
  24162866.523 1 126976755.534 1        30.300

  25412294.391 5 133542680.898 5        35.200    25412304.398 5 104059301.68647
        28.800    25412303.57447
  22845846.594 7 120055805.706 7        44.600    22845855.215 8  93550046.44549
        44.900    22845854.44949  22845852.219 5  89652127.629 5        36.700
  22713538.672 7 119360650.753 7        44.100    22713545.199 7  93008414.08948
        31.100    22713544.53948  22713546.551 5  89133061.713 5        35.300
  22443745.125 8 117942764.596 8        45.500                    91903442.02848
        33.100    22443749.33648
  24874071.086 5 130714129.394 5        36.300    24874077.309 5 101855192.69846
        21.100    24874076.93446
  21599850.602 8 113508097.694 8        47.900    21599859.527 8  88447922.03449
        51.100    21599858.18849  21599856.938 6  84762546.869 6        38.900
  21549925.422 9 113245669.695 9        48.200    21549931.066 9  88243439.50849
        39.700    21549930.44549  21549931.645 6  84566610.601 6        39.200
  20636362.867 9 108444942.911 9        51.900    20636369.391 9  84502614.29649
        55.000    20636369.05949  20636367.195 7  80981768.651 7        42.000
  21128357.078 9 111030382.477 9        49.300    21128362.262 9  86517209.46349
        53.600    21128361.53149
 23  4 10  0  4 30.0000000  0  9G16G30G04G20G05G06G11G09G07
  24160879.305 1 126966316.736 1        28.300

  22827534.820 7 119959578.506 7        44.300    22827543.602 8  93475064.26649
        44.700    22827542.75449  22827540.898 5  89580269.723 5        37.300
  22729533.125 7 119444699.935 7        43.900    22729538.938 7  93073906.95248
        31.800    22729538.27748  22729540.070 4  89195825.629 4        34.700
  22426818.797 8 117853814.870 8        45.100                    91834130.59648
        33.300    22426822.70748
  24853805.852 5 130607636.197 5        37.000    24853812.676 5 101772211.08046
        20.600    24853812.19546
  21613999.867 9 113582452.455 9        48.400    21614008.773 9  88505860.77949
        51.200    21614007.50449  21614006.273 6  84818071.475 6        38.900
  21547629.023 9 113233601.960 9        48.300    21547634.605 9  88234036.07049
        39.400    21547634.03549  21547635.570 6  84557598.952 6        39.200
  20644006.359 9 108485109.271 9        51.800    20644012.816 9  84533912.75949
        55.000    20644012.48049  20644010.566 7  81011763.001 7        41.700
  21121164.352 9 110992585.962 9        49.700    21121169.848 9  86487757.65049
        53.800    21121169.16449
 23  4 10  0  5  0.0000000  0  9G16G30G04G20G05G06G11G09G07
  24159008.555 1                        27.300

  22809271.461 7 119863604.916 7        44.500    22809280.273 8  93400279.69349
        44.700    22809279.23449  22809277.316 5  89508601.187 5        36.000
  22745553.461 7 119528886.679 7        44.000    22745559.574 7  93139506.98248
        30.400    22745558.66448  22745559.633 3  89258692.334 3        33.900
  22409931.797 8 117765076.020 8        45.300                    91764983.46548
        33.100    22409936.58648
  24833545.680 5 130501165.816 5        37.100    24833551.906 5 101689247.23946
        22.000    24833550.70346
  21628234.234 9 113657254.062 9        48.600    21628242.984 9  88564147.72549
        51.200    21628241.88349  21628240.391 6  84873929.804 6        39.600
  21545449.477 8 113222147.819 8        47.700    21545455.117 9  88225110.75549
        39.500    21545454.32049  21545455.777 6  84549045.556 6        39.300
  20651711.133 9 108525598.883 9        51.600    20651717.766 9  84565463.09349
        55.100    20651717.41449  20651715.613 7  81041998.751 7        41.700
  21114061.938 9 110955259.916 9        49.900    21114066.902 9  86458672.43249
        54.000    21114066.28949
 23  4 10  0  5 30.0000000  0  8G30G04G20G05G06G11G09G07
  22791057.133 8 119767886.828 8        45.400    22791065.867 8  93325694.20849
        45.000    22791064.88349  22791063.070 5  89437123.438 5        35.900
  22761599.469 7 119613209.558 7        43.500    22761605.883 7  93205213.09548
        30.700    22761605.23448  22761605.949 3  89321660.704 3        33.700
  22393085.961 8 117676550.001 8        45.500                    91696002.18948
        32.400    22393090.21948
  24813289.438 5 130394720.293 5        37.900    24813296.477 6 101606302.73646
        22.500    24813295.95346
  21642553.125 8 113732499.795 8        47.900    21642561.844 9  88622780.73949
        51.000    21642560.68049  21642559.348 6  84930119.786 6        39.100
  21543386.641 9 113211307.530 9        48.300    21543392.238 9  88216663.77249
        38.900    21543391.61749  21543392.891 6  84540950.509 6        39.200
  20659477.328 9 108566410.403 9        52.400    20659483.969 9  84597264.27849
        55.600    20659483.51649  20659481.348 7  81072474.881 7        42.200
  21107048.438 9 110918404.656 9        49.700    21107053.469 9  86429954.07149
        53.900    21107053.05949
 23  4 10  0  6  0.0000000  0  8G30G04G20G05G06G11G09G07
  22772891.773 7 119672427.149 7        44.700    22772900.594 7  93251310.09249
        45.200    22772899.43049  22772897.586 5  89365838.686 5        37.200
  22777671.086 7 119697668.220 7        43.100    22777677.969 7  93271024.98747
        29.700    22777677.41847  22777678.969 4  89384730.439 4        34.700
  22376280.766 8 117588239.248 8        46.000                    91627188.65648
        33.400    22376284.74248
  24793038.375 5 130288300.782 5        37.700    24793045.027 5 101523378.49746
        22.600    24793044.28146
  21656956.023 9 113808187.942 9        48.200    21656964.848 9  88681758.49749
        50.800    21656963.54349  21656962.422 6  84986640.109 6        38.800
  21541440.789 8 113201082.315 8        47.800    21541446.523 9  88208696.07549
        39.200    21541445.75049  21541447.043 6  84533314.792 6        39.400
  20667304.906 9 108607543.563 9        51.900    20667311.355 9  84629316.09249
        55.000    20667310.89549  20667309.027 7  81103191.188 7        41.700
  21100125.070 9 110882022.085 9        49.600    21100130.109 9  86401604.03249
        54.100    21100129.63349
 23  4 10  0  6 30.0000000  0  8G30G04G20G05G06G11G09G07
  22754776.148 7 119577228.544 7        44.900    22754784.727 8  93177129.40749
        45.500    22754783.85949  22754781.742 5  89294748.848 5        36.900
  22793768.875 7 119782261.902 7        43.800    22793775.324 7  93336942.10648
        30.200    22793774.29348  22793776.883 4  89447901.017 4        34.900
  22359517.570 8 117500146.778 8        45.900                    91558545.19148
        33.600    22359521.60248
  24772792.633 5 130181910.112 5        37.100    24772799.340 6 101440476.74746
        21.800    24772798.14146
  21671443.117 8 113884316.556 8        47.400    21671451.664 9  88741079.46649
        51.200    21671450.48049  21671449.148 6  85043489.392 6        38.800
  21539612.336 8 113191473.194 8        47.600    21539617.934 9  88201208.44449
        39.800    21539617.27749  21539618.500 6  84526139.146 6        38.900
  20675193.242 9 108648997.828 9        51.900    20675199.887 9  84661618.11349
        55.000    20675199.47749  20675197.316 7  81134147.313 7        41.700
  21093291.844 9 110846113.279 9        48.600    21093296.891 9  86373623.16149
        54.200    21093296.40649
 23  4 10  0  7  0.0000000  0  8G30G04G20G05G06G11G09G07
  22736710.359 8 119482291.915 8        46.100    22736718.695 8  93103152.86349
        45.800    22736718.01649  22736716.258 5  89223854.678 5        37.100
  22809891.938 7 119866988.310 7        44.000    22809898.219 7  93402962.66247
        29.400    22809897.59447  22809899.480 4  89511170.662 4        34.500
  22342795.906 8 117412273.328 8        46.700                    91490072.40648
        33.100    22342799.64148
  24752552.391 4 130075548.629 4        34.300    24752559.477 5 101357597.73846
        20.400    24752558.69146
  21686012.734 9 113960881.896 9        48.400    21686021.629 9  88800740.74349
        50.900    21686020.47349  21686018.949 6  85100664.755 6        38.800
  21537900.992 8 113182479.336 8        47.300    21537906.348 9  88194200.23749
        39.500    21537905.92649  21537907.254 6  84519422.960 6        38.400
  20683142.266 9 108690770.945 9        52.000    20683149.176 9  84694168.58549
        55.200    20683148.52749  20683146.836 7  81165341.494 7        42.200
  21086548.711 9 110810677.037 9        49.200    21086553.504 9  86346010.52249
        54.100    21086553.09449
 23  4 10  0  7 30.0000000  0  8G30G04G20G05G06G11G09G07
  22718694.258 7 119387618.954 7        44.700    22718703.000 8  93029381.77649
        45.600    22718701.93449  22718700.438 5  89153157.389 5        36.800
  22826039.773 7 119951845.778 7        43.600    22826046.227 7  93469085.33947
        29.900    22826045.52347  22826046.867 4  89574538.222 4        34.400
  22326116.063 8 117324620.558 8        46.400                    91421771.58148
        32.900    22326120.50048
  24732319.063 5 129969218.492 5        36.100    24732325.328 5 101274743.18846
        21.700    24732324.39146
  21700665.102 8 114037880.984 8        47.900    21700674.016 8  88860740.00049
        50.500    21700672.71949  21700671.762 6  85158164.037 6        38.400
  21536306.383 8 113174100.649 8        47.300    21536312.125 9  88187671.39349
        40.000    21536311.52349  21536312.590 6  84513166.155 6        39.200
  20691151.945 9 108732861.351 9        52.100    20691158.617 9  84726966.29949
        55.200    20691158.10549  20691156.387 7  81196772.623 7        42.400
  21079895.250 9 110775714.041 9        48.600    21079900.285 9  86318766.64749
        54.200    21079899.93849
 23  4 10  0  8  0.0000000  0  8G30G04G20G05G06G11G09G07
  22700729.281 7 119293213.068 7        44.600    22700738.121 8  92955818.79649
        45.700    22700737.24249  22700735.336 5  89082659.543 5        37.200
  22842212.836 7 120036834.536 7        42.400    22842218.727 7  93535310.32447
        29.300    22842218.65647  22842219.047 3  89638003.852 3        33.200
  22309478.758 8 117237191.972 8        46.300                    91353645.44548
        33.100    22309483.32048
  24712091.391 5 129862920.964 5        37.100    24712097.637 6 101191914.02446
        21.300    24712097.16446
  21715400.117 8 114115312.677 8        47.900    21715408.629 9  88921076.36549
        50.400    21715407.44549  21715406.566 6  85215986.408 6        39.000
  21534829.383 8 113166338.932 8        47.200    21534834.938 9  88181623.30449
        39.500    21534834.17249  21534836.078 6  84507370.048 6        39.800
  20699221.891 9 108775269.401 9        52.900    20699228.613 9  84760011.52949
        55.800    20699228.16049  20699226.188 7  81228440.973 7        41.600
  21073332.781 9 110741226.793 9        48.900    21073337.621 9  86291893.48449
        54.100    21073337.04349
 23  4 10  0  8 30.0000000  0  8G30G04G20G05G06G11G09G07
  22682815.969 7 119199076.317 7        44.900    22682824.629 8  92882465.53749
        46.200    22682823.65249  22682821.926 5  89012362.692 5        37.300
  22858410.031 7 120121953.301 7        42.500    22858416.230 7  93601636.60747
        29.400    22858415.74247  22858417.441 4  89701566.526 4        34.200
  22292884.891 8 117149989.892 8        46.300                    91285695.80448
        33.400    22292889.26248
  24691870.047 6 129756657.464 6        39.300    24691876.523 5 101109111.34346
        22.600    24691875.59046
  21730216.898 9 114193174.286 9        48.000    21730225.504 9  88981747.72949
        50.700    21730224.22749  21730223.344 6  85274129.772 6        38.700
  21533469.859 9 113159194.394 9        48.200    21533475.492 9  88176056.12849
        39.200    21533474.64549  21533476.516 6  84502034.818 6        39.100
  20707352.047 9 108817993.867 9        51.800    20707358.652 9  84793303.32149
        55.600    20707358.41049  20707356.531 7  81260345.616 7        41.700
  21066860.414 9 110707214.992 9        49.300    21066865.309 9  86265390.79449
        54.300    21066864.52749
 23  4 10  0  9  0.0000000  0  8G30G04G20G05G06G11G09G07
  22664954.094 8 119105210.461 8        45.600    22664962.258 8  92809323.35249
        46.300    22664961.32449  22664959.484 5  88942268.121 5        37.700
  22874632.336 7 120207200.666 7        42.500    22874638.484 7  93668063.10247
        29.000    22874637.82047  22874639.863 4  89765225.207 4        34.800
  22276333.953 8 117063015.899 8        46.000                    91217923.89148
        33.100    22276338.38748
  24671655.211 6 129650429.756 6        38.700    24671661.598 5 101026336.53446
        22.200    24671661.04346
  21745114.609 9 114271462.949 9        48.200    21745123.434 9  89042751.86149
        50.800    21745122.41449  21745121.059 6  85332592.055 6        38.300
  21532227.617 8 113152667.048 8        47.600    21532233.297 9  88170969.88249
        38.900    21532232.53549  21532233.969 6  84497160.517 6        38.700
  20715542.203 9 108861033.431 9        52.300    20715548.922 9  84826840.64049
        56.600    20715548.43849  20715546.543 7  81292485.546 7        41.700
  21060478.750 9 110673679.380 9        49.100    21060483.574 9  86239259.15949
        54.400    21060482.96949
 23  4 10  0  9 30.0000000  0  8G30G04G20G05G06G11G09G07
  22647143.508 8 119011617.517 8        45.200    22647152.223 8  92736393.82349
        46.100    22647151.05149  22647149.441 5  88872377.316 5        37.900
  22890878.406 7 120292575.365 7        42.600    22890885.125 7  93734588.81347
        29.000    22890884.67647  22890885.922 4  89828979.026 4        34.400
  22259826.922 8 116976272.333 8        45.900                    91150331.52948
        33.000    22259831.73448
  24651447.188 5 129544239.921 5        37.100    24651454.672 6 100943591.24446
        22.000    24651454.07846
  21760093.234 9 114350176.050 9        48.100    21760101.855 9  89104086.71549
        50.500    21760100.86749  21760099.438 6  85391371.286 6        38.800
  21531103.094 8 113146756.994 8        47.800    21531108.527 9  88166364.65049
        39.500    21531108.07449  21531109.418 6  84492747.164 6        39.600
  20723792.156 9 108904386.929 9        52.100    20723798.844 9  84860622.58349
        55.100    20723798.37949  20723796.391 7  81324859.910 7        41.700
  21054188.047 9 110640620.891 9        48.600    21054192.852 9  86213499.32249
        54.400    21054192.33649
 23  4 10  0 10  0.0000000  0  8G30G04G20G05G06G11G09G07
  22629385.719 7 118918299.942 7        44.700    22629394.496 8  92663678.88349
        46.400    22629393.63349  22629391.645 5  88802692.177 5        37.500
  22907149.141 7 120378076.657 7        43.400    22907155.367 7  93801213.16447
        29.200    22907155.34447  22907155.914 4  89892827.357 4        34.400
  22243364.797 8 116889761.470 8        46.000                    91082920.49649
        34.000    22243368.60549
  24631248.273 6 129438089.525 6        38.600    24631254.773 5 100860876.70246
        22.500    24631254.16846
  21775152.016 9 114429311.360 9        48.000    21775160.988 8  89165750.55849
        50.200    21775159.90649  21775158.449 6  85450465.810 6        38.600
  21530096.211 8 113141465.098 8        47.200    21530101.512 9  88162241.08849
        39.000    21530100.90649  21530102.383 6  84488795.460 6        39.000
  20732101.633 9 108948053.715 9        52.900    20732108.352 9  84894648.64649
        56.000    20732107.73449  20732106.020 7  81357468.237 7        42.000
  21047988.094 9 110608039.992 9        48.800    21047992.840 9  86188111.62849
        54.400    21047992.34449
 23  4 10  0 10 30.0000000  0  8G30G04G20G05G06G11G09G07
  22611680.563 8 118825259.338 8        45.900    22611689.496 8  92591179.75849
        46.900    22611688.68449  22611686.285 5  88733213.866 5        37.500
  22923443.227 7 120463702.843 7        42.100    22923449.523 7  93867934.84147
        28.300    22923449.48047  22923449.871 3  89956768.978 3        33.800
  22226947.211 8 116803484.986 8        47.000                    91015692.08348
        33.900    22226951.12148
  24611056.828 6 129331980.202 6        39.500    24611063.266 6 100778194.20246
        24.000    24611062.67646
  21790290.875 9 114508865.780 9        48.300    21790299.375 9  89227740.98749
        50.100    21790298.56349  21790297.164 6  85509873.310 6        38.600
  21529206.797 8 113136790.978 8        47.800    21529212.086 9  88158598.91749
        38.900    21529211.29349  21529212.840 6  84485305.003 6        39.000
  20740470.414 9 108992032.152 9        52.300    20740477.188 9  84928917.55049
        56.100    20740476.63349  20740474.398 7  81390309.244 7        41.600
  21041879.008 9 110575936.751 9        48.900    21041883.742 9  86163096.12649
        54.500    21041883.31649
 23  4 10  0 11  0.0000000  0  8G30G04G20G05G06G11G09G07
  22594028.836 8 118732497.674 8        45.600    22594037.316 8  92518897.98949
        47.000    22594036.55949  22594034.586 6  88663943.851 6        38.300
  22939760.797 7 120549452.750 7        42.000    22939766.941 7  93934752.90847
        28.100    22939766.15647  22939768.266 4  90020802.953 4        34.600
  22210574.359 8 116717445.008 8        47.000                    90948647.96549
        34.400    22210578.02749
  24590872.414 5 129225913.412 5        37.200    24590878.730 6 100695544.79646
        23.000    24590877.89846
  21805509.031 9 114588836.590 9        48.700    21805517.684 9  89290055.87649
        50.100    21805516.58649  21805515.262 6  85569591.740 6        38.600
  21528434.859 8 113132734.746 8        47.500    21528440.363 9  88155438.20749
        39.500    21528439.60949  21528440.953 6  84482276.006 6        39.400
  20748898.500 9 109036321.112 9        52.300    20748904.918 9  84963428.42849
        55.300    20748904.22749  20748902.664 7  81423382.171 7        41.600
  21035860.578 9 110544311.390 9        48.900    21035865.590 9  86138452.99149
        54.400    21035865.28149
 23  4 10  0 11 30.0000000  0  8G30G04G20G05G06G11G09G07
  22576430.484 8 118640017.801 8        45.500    22576438.941 8  92446835.79149
        47.000    22576437.94149  22576436.023 5  88594884.261 5        37.400
  22956102.031 7 120635326.081 7        42.100    22956108.172 7  94001667.16947
        28.100    22956107.43847  22956109.543 4  90084929.117 4        34.100
  22194246.805 8 116631644.453 8        46.200                    90881790.43249
        34.100    22194251.18449
  24570697.055 6 129119890.706 6        38.700    24570703.160 5 100612929.77946
        22.600    24570702.76246
  21820805.586 8 114669221.984 8        47.900    21820814.570 9  89352693.82649
        50.000    21820813.41449  21820811.984 6  85629619.769 6        38.600
  21527780.766 8 113129297.378 8        47.500    21527786.078 9  88152759.73049
        39.300    21527785.60549  21527786.781 6  84479709.134 6        39.000
  20757385.328 9 109080920.343 9        52.400    20757392.012 9  84998181.07649
        55.000    20757391.38749  20757389.605 7  81456686.796 7        41.500
  21029933.859 9 110513165.658 9        48.500    21029938.836 9  86114183.60649
        54.500    21029938.35949
 23  4 10  0 12  0.0000000  0  8G30G04G20G05G06G11G09G07
  22558886.063 8 118547821.156 8        45.500    22558894.422 8  92374994.28649
        47.500    22558893.62549  22558891.297 5  88526036.143 5        37.800
  22972466.531 7 120721321.043 7        42.400    22972472.664 7  94068676.20747
        28.900    22972472.36747  22972473.527 3  90149146.085 3        33.800
  22177965.016 8 116546084.722 8        46.500                    90815120.54449
        34.200    22177969.54349
  24550529.938 6 129013913.464 6        39.200    24550536.387 5 100530350.11946
        24.700    24550535.48046
  21836180.734 8 114750018.714 8        47.600    21836189.605 8  89415652.29349
        50.000    21836188.75849  21836187.090 6  85689954.964 6        38.500
  21527244.203 8 113126478.430 8        47.200    21527249.770 9  88150563.14649
        39.100    21527249.23049  21527250.406 6  84477604.055 6        39.200
  20765931.023 9 109125828.136 9        52.100    20765937.609 9  85033174.15949
        55.800    20765937.09449  20765935.379 7  81490221.837 7        41.700
  21024098.148 9 110482499.099 9        48.800    21024103.141 9  86090287.60549
        54.500    21024102.55549
 23  4 10  0 12 30.0000000  0  8G30G04G20G05G06G11G09G07
  22541395.719 8 118455909.904 8        45.600    22541404.535 8  92303375.17149
        47.500    22541403.49249  22541401.375 5  88457401.170 5        37.500
  22988853.602 7 120807436.634 7        42.500    22988860.043 7  94135779.22847
        28.800    22988859.83647  22988860.270 3  90213453.148 3        32.700
  22161730.281 8 116460768.422 8        47.200                    90748640.34149
        34.200    22161734.19549
  24530372.734 6 128907983.804 6        40.500    24530378.770 5 100447807.57347
        25.600    24530378.26647
  21851633.648 8 114831224.230 8        47.900    21851642.555 9  89478929.28349
        49.600    21851641.59449  21851640.273 6  85750595.385 6        38.100
  21526825.453 8 113124278.120 8        47.800    21526831.070 9  88148848.60949
        39.200    21526830.54749  21526832.012 6  84475960.981 6        39.400
  20774535.164 9 109171043.535 9        52.100    20774541.820 9  85068406.93449
        55.000    20774541.16449  20774539.605 7  81523986.565 7        41.500
  21018354.070 9 110452312.801 9        49.000    21018358.977 9  86066765.83149
        54.700    21018358.50849
 23  4 10  0 13  0.0000000  0  9G16G30G04G20G05G06G11G09G07
  24144796.328 2                        31.600

  22523960.172 8 118364285.902 8        45.800    22523968.855 8  92231979.89349
        47.300    22523968.03549  22523966.070 6  88388980.731 6        38.500
  23005263.727 7 120893671.607 7        41.700    23005270.098 7  94202975.27347
        29.100    23005269.91847  23005270.605 3  90277849.390 3        33.800
  22145541.750 8 116375697.646 8        47.000                    90682351.44749
        34.500    22145545.77349
  24510223.945 6 128802103.484 6        38.700    24510230.754 6 100365303.45346
        24.100    24510230.08646
  21867163.742 8 114912835.714 8        47.500    21867172.785 9  89542522.61649
        49.500    21867171.85549  21867170.566 6  85811539.029 6        38.800
  21526524.375 8 113122696.418 8        47.100    21526530.094 9  88147616.10949
        39.200    21526529.43449  21526531.082 6  84474779.824 6        39.200
  20783197.867 9 109216565.363 9        51.500    20783204.383 9  85103878.49049
        55.200    20783203.88749  20783202.129 7  81557980.126 7        41.400
  21012701.250 9 110422606.991 9        48.900    21012706.098 9  86043618.46249
        54.600    21012705.63349
 23  4 10  0 13 30.0000000  0  9G16G30G04G20G05G06G11G09G07
  24144896.883 3                        32.000

  22506580.156 8 118272951.514 8        46.000    22506588.531 8  92160810.28049
        47.800    22506587.43449  22506585.355 6  88320776.511 6        38.300
  23021696.180 7 120980025.091 7        42.300    23021702.488 7  94270263.64247
        28.500    23021701.93047  23021703.605 4  90342334.017 4        34.000
  22129400.500 8 116290874.826 8        46.400                    90616255.76649
        34.400    22129404.30549
  24490085.063 6 128696274.049 6        38.700    24490091.820 6 100282839.05646
        22.000    24490090.60546
  21882770.852 8 114994850.765 8        47.100    21882779.723 8  89606430.42349
        49.400    21882778.55549  21882777.762 6  85872783.961 6        38.300
  21526341.250 9 113121733.649 9        48.100    21526346.871 9  88146865.90749
        39.500    21526346.46949  21526347.813 6  84474060.871 6        38.900
  20791918.578 9 109262392.765 9        51.800    20791925.039 9  85139588.15049
        55.300    20791924.51249  20791922.777 7  81592201.898 7        41.100
  21007139.805 9 110393381.406 9        49.800    21007144.477 9  86020845.29849
        54.600    21007144.09849
 23  4 10  0 14  0.0000000  0  9G16G30G04G20G05G06G11G09G07
  24145116.172 3 126883486.51113        33.000

  22489255.148 8 118181908.790 8        46.100    22489263.551 8  92089867.92949
        48.100    22489262.64549  22489260.355 5  88252790.129 5        37.300
  23038151.031 7 121066496.100 7        42.800    23038157.164 7  94337643.62347
        28.700    23038156.86347  23038158.418 3  90406906.492 3        33.700
  22113306.789 8 116206301.935 8        47.300                    90550354.83349
        34.700    22113310.66049
  24469957.227 5 128590497.509 5        37.700    24469962.504 5 100200415.83746
        22.000    24469962.34846
  21898454.250 8 115077266.802 8        47.700    21898462.902 8  89670650.68349
        49.300    21898461.59449  21898460.758 6  85934328.399 6        38.100
  21526276.148 8 113121389.963 8        47.800    21526281.406 9  88146598.09249
        39.600    21526280.95749  21526282.375 6  84473804.218 6        39.200
  20800697.172 9 109308524.763 9        52.100    20800703.699 9  85175535.15649
        55.700    20800702.90649  20800701.180 7  81626651.112 7        41.300
  21001670.008 9 110364637.867 9        49.400    21001674.754 9  85998447.75349
        54.600    21001674.08249
 23  4 10  0 14 30.0000000  0  9G16G30G04G20G05G06G11G09G07
  24145451.227 3 126885252.53313        33.200                    98871610.46055
        16.900    24145456.38345
  22471986.109 8 118091160.169 8        46.300    22471994.734 8  92019154.76249
        48.100    22471993.89849  22471991.602 5  88185023.328 5        37.600
  23054628.031 7 121153083.883 7        41.800    23054634.887 7  94405114.58947
        28.600    23054634.46147  23054635.043 3  90471566.166 3        33.100
  22097261.039 8 116121981.665 8        47.000                    90484650.75149
        34.700    22097265.07049
  24449838.625 6 128484775.047 6        38.100    24449844.539 5 100118034.75346
        24.100    24449843.93446
  21914213.273 8 115160081.446 8        46.900    21914221.934 8  89735181.54749
        49.300    21914220.84849  21914219.398 6  85996170.467 6        38.200
  21526328.297 8 113121665.723 8        47.100    21526333.977 9  88146812.96049
        39.300    21526333.38349  21526334.625 6  84474010.100 6        39.000
  20809533.555 9 109354960.654 9        52.300    20809540.090 9  85211718.97649
        55.500    20809539.86749  20809537.676 7  81661327.282 7        41.300
  20996292.023 9 110336376.530 9        48.800    20996296.965 9  85976425.96949
        54.700    20996296.16849
 23  4 10  0 15  0.0000000  0  9G16G30G04G20G05G06G11G09G07
  24145905.000 3 126887634.776 3        33.800                    98873466.87354
        14.800    24145909.28144
  22454773.406 8 118000707.342 8        46.000    22454782.230 8  91948672.08049
        48.200    22454781.18449  22454779.098 6  88117477.449 6        38.200
  23071126.852 7 121239787.098 7        41.500    23071133.875 7  94472675.48747
        28.900    23071133.57447  23071133.344 2  90536311.997 2        31.900
  22081263.766 8 116037916.049 8        46.500                    90419145.09849
        34.400    22081268.20349
  24429730.578 6 128379108.989 6        38.800    24429736.621 6 100035697.59046
        22.900    24429736.03546
  21930047.828 8 115243291.756 8        47.400    21930056.496 8  89800020.73049
        49.000    21930055.36349  21930054.156 5  86058308.027 5        37.900
  21526498.922 8 113122560.648 8        47.300    21526504.383 9  88147510.29449
        39.500    21526503.84849  21526504.883 6  84474678.402 6        39.200
  20818427.516 9 109401699.139 9        51.800    20818434.133 9  85248138.56649
        55.200    20818434.05949  20818431.887 7  81696229.391 7        42.000
  20991005.797 9 110308598.075 9        48.800    20991010.762 9  85954780.43749
        54.600    20991010.10949
 23  4 10  0 15 30.0000000  0  9G16G30G04G20G05G06G11G09G07
  24146475.383 4 126890633.00714        34.700                    98875803.18555
        16.300    24146480.00045
  22437617.141 8 117910551.699 8        46.000    22437626.023 8  91878420.98149
        48.200    22437625.03949  22437623.281 6  88050153.499 6        38.200
  23087648.398 7 121326603.962 7        42.500    23087654.516 7  94540324.94747
        28.800    23087653.87547  23087655.000 3  90601142.793 3        32.700
  22065315.414 8 115954106.474 8        46.400                    90353838.95449
        35.400    22065319.75449
  24409633.492 6 128273500.308 6        38.600    24409639.633 5  99953405.17246
        22.300    24409639.13746
  21945956.859 8 115326894.409 8        47.000    21945965.473 8  89865165.62649
        48.800    21945964.55149  21945963.605 6  86120738.528 6        38.600
  21526786.859 8 113124074.115 8        47.400    21526792.375 9  88148689.61849
        39.700    21526792.07049  21526793.176 6  84475808.577 6        39.300
  20827379.016 9 109448738.480 9        52.200    20827385.332 9  85284792.59949
        55.500    20827385.10549  20827383.008 6  81731356.152 6        40.900
  20985811.523 9 110281301.416 9        48.600    20985816.324 9  85933510.32849
        54.600    20985815.66449
 23  4 10  0 16  0.0000000  0  9G16G30G04G20G05G06G11G09G07
  24147163.664 4 126894247.920 4        34.300                    98878620.00545
        16.300    24147167.64545
  22420518.250 8 117820695.563 8        46.300    22420526.887 8  91808403.24949
        48.400    22420525.73049  22420523.980 6  87983053.175 6        38.300
  23104190.781 7 121413533.766 7        42.000    23104196.410 7  94608062.43647
        27.800    23104195.78147  23104198.082 4  90666057.857 4        34.100
  22049416.227 8 115870555.641 8        47.000                    90288734.43049
        34.900    22049420.43849
  24389548.664 6 128167951.005 6        38.600    24389553.977 5  99871159.00546
        23.000    24389553.89546
  21961940.023 8 115410886.933 8        47.400    21961948.828 8  89930614.31349
        48.800    21961947.68449  21961946.688 5  86183460.188 5        37.700
  21527192.539 8 113126206.300 8        47.900    21527198.051 9  88150351.05449
        39.500    21527197.67249  21527198.750 6  84477400.782 6        39.400
  20836387.117 9 109496077.891 9        52.000    20836393.777 9  85321680.44149
        55.000    20836393.57049  20836391.535 7  81766707.013 7        41.700
  20980708.938 9 110254488.051 9        49.500    20980713.930 9  85912616.81349
        54.700    20980713.27349
 23  4 10  0 16 30.0000000  0  9G16G30G04G20G05G06G11G09G07
  24147969.094 3 126898480.90413        33.500                    98881918.48955
        16.900    24147973.44945
  22403476.703 8 117731141.945 8        46.000    22403485.410 8  91738621.24149
        48.300    22403484.19549  22403482.223 6  87916178.793 6        38.300
  23120753.867 7 121500576.399 7        41.800    23120760.520 7  94675887.84247
        28.600    23120759.73847  23120761.082 3  90731057.153 3        33.200
  22033567.047 8 115787266.605 8        46.500                    90223833.91249
        35.100    22033570.90649
  24369474.570 5 128062464.003 5        37.900    24369481.109 6  99788961.35846
        22.800    24369480.77746
  21977997.133 8 115495267.650 8        47.200    21978005.977 8  89996365.49349
        48.800    21978004.84049  21978003.785 6  86246471.725 6        38.100
  21527716.094 8 113128958.205 8        47.200    21527721.688 9  88152495.38549
        38.800    21527720.81349  21527722.344 6  84479455.762 6        39.200
  20845452.711 9 109543717.374 9        51.900    20845459.480 9  85358802.11249
        55.100    20845458.80549  20845457.223 7  81802281.938 7        41.400
  20975698.617 9 110228158.885 9        48.800    20975703.512 9  85892100.60249
        54.900    20975702.96949
 23  4 10  0 17  0.0000000  0  9G16G30G04G20G05G06G11G09G07
  24148893.031 4 126903331.10614        34.000                    98885697.90855
        15.600    24148896.19545
  22386493.117 8 117641891.964 8        46.100    22386501.668 8  91669075.84349
        48.800    22386500.76649  22386498.484 6  87849531.106 6        38.300
  23137338.453 7 121587729.996 7        41.600    23137345.723 7  94743799.68247
        28.900    23137345.04747  23137345.109 3  90796139.375 3        32.600
  22017767.734 8 115704240.707 8        46.600                    90159138.42549
        35.200    22017771.93049
  24349413.125 6 127957039.908 6        39.000    24349419.453 6  99706812.82746
        24.700    24349419.37546
  21994127.539 8 115580032.969 8        47.000    21994136.133 8  90062416.36549
        48.500    21994135.12149  21994133.863 5  86309770.474 5        37.200
  21528357.508 8 113132328.861 8        47.200    21528363.098 9  88155121.85149
        39.200    21528362.26249  21528363.504 6  84481972.794 6        38.800
  20854574.953 9 109591655.008 9        52.000    20854581.539 9  85396156.11349
        55.200    20854581.00449  20854579.070 7  81838079.505 7        41.200
  20970780.586 9 110202313.344 9        49.300    20970785.273 9  85871961.23349
        54.900    20970784.73049
 23  4 10  0 17 30.0000000  0  9G16G30G04G20G05G06G11G09G07
  24149932.719 4 126908798.71014        34.300                    98889958.43955
        16.900    24149936.26645
  22369567.641 8 117552947.545 8        46.500    22369576.004 9  91599768.54549
        49.100    22369575.42249  22369572.941 6  87783111.608 6        38.900
  23153944.320 7 121674993.415 7        41.300    23153951.004 7  94811797.10147
        28.500    23153950.58247  23153950.656 3  90861303.586 3        32.300
  22002018.781 8 115621480.205 8        46.300                    90094649.73649
        35.400    22002022.87949
  24329364.047 6 127851679.944 6        40.900    24329369.461 5  99624714.18646
        22.500    24329368.77046
  22010330.602 8 115665180.064 8        45.900    22010339.246 8  90128764.73049
        48.100    22010337.98049  22010336.879 5  86373354.336 5        37.600
  21529116.695 8 113136318.044 8        47.800    21529122.301 9  88158230.30749
        39.000    21529121.63749  21529122.746 6  84484951.736 6        38.900
  20863753.703 9 109639889.641 9        51.300    20863760.199 9  85433741.53749
        55.600    20863759.88349  20863757.945 7  81874098.893 7        41.100
  20965954.570 9 110176952.164 9        49.800    20965959.293 9  85852199.28949
        54.800    20965958.61349
 23  4 10  0 18  0.0000000  0  9G16G30G04G20G05G06G11G09G07
  24151091.242 4 126914884.619 4        34.100                    98894700.70244
        14.800    24151094.34844
  22352700.500 8 117464311.170 8        46.200    22352708.973 8  91530701.27949
        49.000    22352708.05549  22352706.016 6  87716922.147 6        38.500
  23170570.742 7 121762366.089 7        42.000    23170577.234 7  94879879.66847
        27.700    23170576.50047  23170578.113 3  90926549.305 3        33.300
  21986320.805 8 115538987.724 8        46.400                    90030369.89449
        35.300    21986325.21149
  24309327.453 6 127746386.894 6        40.000    24309333.680 6  99542667.69546
        24.700    24309333.45746
  22026605.781 8 115750706.724 8        46.600    22026614.512 8  90195408.84149
        48.000    22026613.25049  22026612.234 5  86437221.627 5        37.600
  21529993.531 8 113140926.131 8        47.300    21529999.094 9  88161821.01049
        39.500    21529998.66049  21529999.699 6  84488392.836 6        38.900
  20872988.805 9 109688420.770 9        51.500    20872995.625 9  85471557.99949
        55.200    20872995.30549  20872993.043 7  81910339.676 7        41.400
  20961220.758 9 110152075.855 9        49.400    20961225.652 9  85832815.16749
        55.000    20961224.85249
 23  4 10  0 18 30.0000000  0  9G16G30G04G20G05G06G11G09G07
  24152365.141 3                        33.700
        14.800    24152369.91044
  22335892.711 8 117375984.947 8        46.100    22335900.945 8  91461875.69049
        49.000    22335900.17649  22335898.105 6  87650964.313 6        38.900
  23187218.297 7 121849847.096 7        42.200    23187224.309 7  94948046.67747
        28.400    23187223.50847  23187225.574 3  90991875.964 3        33.300
  21970674.594 8 115456766.022 8        46.600                    89966301.06249
        35.200    21970679.03949
  24289303.758 6 127641162.673 6        39.600    24289310.391 6  99460674.84846
        24.900    24289309.17646
  22042952.445 8 115836610.208 8        46.700    22042961.484 8  90262346.59949
        48.100    22042960.27349  22042959.328 5  86501370.274 5        37.400
  21530988.063 8 113146153.041 8        47.100    21530993.758 9  88165893.91249
        39.200    21530993.19949  21530994.367 6  84492296.047 6        39.000
  20882280.438 9 109737247.398 9        51.300    20882286.902 9  85509604.71549
        55.700    20882286.37149  20882284.488 7  81946801.099 7        41.400
  20956579.070 9 110127684.623 9        49.300    20956583.945 9  85813809.02249
        55.000    20956583.43449
 23  4 10  0 19  0.0000000  0  9G16G30G04G20G05G06G11G09G07
  24153758.828 3                        33.400
        14.800    24153763.35944
  22319143.953 8 117287970.197 8        46.800    22319152.273 8  91393292.80149
        49.300    22319151.41849  22319149.340 6  87585239.072 6        38.600
  23203885.648 7 121937434.779 7        41.500    23203892.160 7  95016296.77147
        29.700    23203891.78947  23203892.980 3  91057282.347 3        33.000
  21955080.211 8 115374816.229 8        46.800                    89902444.09349
        36.000    21955084.28949
  24269293.680 6 127536008.301 6        40.600    24269299.629 6  99378736.43446
        24.700    24269299.11346
  22059370.625 8 115922887.224 8        45.700    22059379.449 8  90329575.41549
        48.200    22059378.49249  22059377.172 5  86565797.880 5        37.700
  21532100.242 9 113151997.995 9        48.000    21532106.082 9  88170448.41749
        39.300    21532105.36349  21532106.727 6  84496660.773 6        38.500
  20891627.469 9 109786367.933 9        49.700    20891634.305 9  85547880.45049
        55.000    20891633.89149  20891631.809 7  81983482.002 7        41.400
  20952029.977 9 110103778.332 9        50.000    20952034.871 9  85795180.76749
        55.000    20952034.21149
 23  4 10  0 19 30.0000000  0  9G16G30G04G20G05G06G11G09G07
  24155270.203 3                        32.600
        15.600    24155274.75845
  22302455.258 8 117200269.285 8        47.600    22302463.281 8  91324954.46849
        49.300    22302462.61749  22302460.426 6  87519748.164 6        39.000
  23220573.492 7 122025128.499 7        41.300    23220579.871 7  95084629.48347
        27.000    23220579.52347  23220579.918 3  91122767.865 3        32.400
  21939537.641 8 115293141.086 8        47.600                    89838801.13549
        35.700    21939541.98449
  24249296.664 6 127430926.195 6        39.400    24249303.574 6  99296854.37147
        25.400    24249303.09047
  22075859.078 8 116009535.318 8        45.100    22075867.832 8  90397093.37849
        47.800    22075867.07449  22075865.902 5  86630502.590 5        36.800
  21533330.109 9 113158461.098 9        48.400    21533335.723 9  88175484.59749
        38.700    21533335.30149  21533336.281 6  84501487.079 6        38.800
  20901030.742 9 109835781.663 9        51.500    20901037.285 9  85586384.64249
        55.200    20901036.95749  20901035.059 7  82020381.868 7        41.600
  20947573.039 9 110080357.855 9        50.300    20947577.996 9  85776931.06149
        55.000    20947577.44949
 23  4 10  0 20  0.0000000  0  9G16G30G04G20G05G06G11G09G07
  24156899.336 3 126945411.58913        33.700                    98918488.04455
        16.900    24156904.37145
  22285826.250 8 117112883.736 8        47.700    22285834.496 8  91256861.86449
        49.400    22285833.65649  22285831.582 6  87454492.770 6        39.400
  23237280.352 7 122112926.810 7        41.400    23237286.965 7  95153043.70847
        26.000    23237285.84847  23237287.609 3  91188331.509 3        32.000
  21924048.102 8 115211742.419 8        47.600                    89775373.61549
        36.100    21924052.50849
  24229314.289 6 127325917.140 6        39.400    24229320.492 6  99215029.10847
        25.400    24229319.84847
  22092417.898 8 116096551.305 8        45.700    22092426.418 8  90464898.01449
        47.400    22092425.43049  22092424.316 5  86695482.031 5        37.100
  21534677.758 9 113165541.660 9        48.700    21534683.410 9  88181001.90849
        39.400    21534682.77749  21534683.938 6  84506774.553 6        39.200
  20910489.195 9 109885487.116 9        50.200    20910495.953 9  85625116.16149
        55.300    20910495.13349  20910493.973 7  82057499.553 7        41.400
  20943208.648 9 110057422.349 9        49.900    20943213.402 9  85759059.25049
        55.000    20943212.93049
 23  4 10  0 20 30.0000000  0  9G16G30G04G20G05G06G11G09G07
  24158646.672 4 126954589.399 4        34.400                    98925639.55945
        16.900    24158650.50845
  22269257.586 8 117025815.768 8        47.100    22269265.844 8  91189016.73549
        49.500    22269265.08649  22269263.152 6  87389474.524 6        39.000
  23254007.516 7 122200828.933 7        41.200    23254014.180 7  95221538.84647
        26.300    23254013.55947  23254015.457 3  91253972.661 3        32.400
  21908611.594 8 115130622.889 8        47.000                    89712163.60549
        36.200    21908615.73849
  24209345.711 6 127220983.727 6        39.600    24209352.879 6  99133262.92946
        24.700    24209351.89546
  22109045.836 8 116183932.690 8        45.800    22109054.781 8  90532987.37249
        47.100    22109053.30549  22109052.344 5  86760734.343 5        37.600
  21536142.445 8 113173239.732 8        47.900    21536148.391 9  88187000.39449
        39.400    21536147.96949  21536149.145 6  84512523.063 6        39.000
  20920003.539 9 109935483.512 9        51.700    20920009.953 9  85664074.39549
        55.100    20920009.44549  20920007.863 7  82094834.538 7        41.400
  20938936.609 9 110034973.030 9        49.600    20938941.559 9  85741566.29049
        55.200    20938940.85549
 23  4 10  0 21  0.0000000  0  9G16G30G04G20G05G06G11G09G07
  24160509.477 3 126964385.91513        33.700                    98933273.24255
        16.300    24160514.10245
  22252749.961 8 116939067.526 8        47.200    22252757.961 9  91121420.74249
        49.800    22252757.28549  22252755.414 6  87324695.035 6        38.900
  23270754.898 7 122288834.118 7        41.100    23270761.324 7  95290114.27147
        28.600    23270760.66047  23270762.168 3  91319690.725 3        32.300
  21893228.633 8 115049784.800 8        47.800                    89649172.90849
        36.100    21893232.74649
  24189392.797 6 127116128.283 6        40.500    24189398.539 5  99051557.43146
        24.300    24189397.62546
  22125743.156 8 116271676.830 8        45.000    22125752.262 8  90601359.39549
        47.500    22125750.41849  22125749.824 5  86826257.503 5        37.600
  21537725.180 9 113181555.156 9        48.300    21537730.828 9  88193479.94549
        39.900    21537730.28549  21537731.273 6  84518732.616 6        39.600
  20929572.664 9 109985770.042 9        52.500    20929579.305 9  85703258.70149
        55.700    20929578.76649  20929576.750 7  82132386.178 7        41.400
  20934757.109 9 110013009.898 9        50.100    20934761.922 9  85724452.18349
        55.000    20934761.28949
 23  4 10  0 21 30.0000000  0  9G16G30G04G20G05G06G11G09G07
  24162492.047 3 126974801.39413        33.300                    98941389.21255
        16.300    24162495.71145
  22236303.453 9 116852640.939 9        48.600    22236311.848 8  91054075.38749
        49.900    22236310.89849  22236308.863 6  87260155.747 6        38.600
  23287520.680 7 122376941.259 7        41.300    23287527.867 7  95358769.13347
        29.300    23287527.31647  23287527.848 3  91385485.027 3        32.400
  21877899.703 9 114969230.456 9        48.300                    89586403.30249
        36.100    21877903.68049
  24169454.375 6 127011351.853 6        39.900    24169459.902 5  98969913.48446
        22.900    24169459.99246
  22142508.828 8 116359780.907 8        45.900    22142517.770 8  90670011.90249
        47.400    22142516.37149  22142515.516 5  86892049.494 5        37.200
  21539424.961 9 113190487.622 9        49.100    21539430.555 9  88200440.30149
        40.000    21539429.95749  21539431.113 6  84525402.994 6        39.200
  20939196.898 9 110036345.652 9        52.700    20939203.551 9  85742668.25349
        55.200    20939203.02749  20939200.750 7  82170153.653 7        41.300
  20930670.227 9 109991533.452 9        51.100    20930675.164 9  85707717.30549
        55.100    20930674.35549
 23  4 10  0 22  0.0000000  0  9G16G30G04G20G05G06G11G09G07
  24164591.719 4 126985834.999 4        34.300                    98949986.82345
        16.900    24164595.14845
  22219918.258 9 116766537.175 9        48.500    22219926.719 9  90986981.58149
        49.700    22219925.68849  22219923.750 6  87195857.535 6        38.700
  23304306.352 7 122465148.708 7        41.100    23304312.930 7  95427502.18447
        27.200    23304312.81347  23304312.855 2  91451354.184 2        31.400
  21862625.094 9 114888961.305 9        48.500                    89523855.92849
        36.000    21862629.02049
  24149530.906 6 126906656.636 6        40.800    24149537.871 6  98888332.83846
        24.100    24149537.77346
  22159342.234 8 116448241.385 8        45.500    22159351.063 8  90738942.11549
        47.300    22159350.14549  22159349.023 5  86958107.605 5        37.300
  21541241.875 9 113200036.018 9        48.300    21541247.477 9  88207880.60749
        39.500    21541246.80949  21541248.492 6  84532533.264 6        39.300
  20948875.648 9 110087208.567 9        51.300    20948882.273 9  85782301.68249
        55.700    20948882.01649  20948879.867 7  82208135.681 7        41.000
  20926675.922 9 109970543.173 9        49.800    20926680.957 9  85691361.25049
        55.600    20926680.18049
 23  4 10  0 22 30.0000000  0  9G16G30G04G20G05G06G11G09G07
  24166809.273 5 126997487.381 5        35.000                    98959066.61045
        16.900    24166812.92245
  22203595.273 9 116680758.963 9        48.300    22203603.500 9  90920141.44249
        49.800    22203602.69549  22203600.738 6  87131802.419 6        39.200
  23321110.445 6 122553456.200 6        40.900    23321116.934 7  95496313.17846
        24.700    23321116.30546  23321118.008 3  91517298.023 3        32.900
  21847405.211 8 114808980.552 8        47.700                    89461533.28349
        36.600    21847409.09849
  24129624.805 6 126802044.199 6        40.600    24129631.035 6  98806816.73647
        26.500    24129631.02347
